<?xml version="1.0" encoding="UTF-8"?><kml xmlns="http://www.opengis.net/kml/2.2"><Document><name>overpass-turbo.eu export</name><description>Filtered OSM data converted to KML by overpass turbo.
Copyright: The data included in this document is from www.openstreetmap.org. The data is made available under ODbL.
Timestamp: 2015-11-07T21:36:02Z</description><Placemark><Point><coordinates>149.1788969,-35.2984394</coordinates></Point><ExtendedData><Data name="@id"><value>node/1330622212</value></Data><Data name="natural"><value>palaeontological_site</value></Data></ExtendedData></Placemark><Placemark><Point><coordinates>-6.6543806,55.2092166</coordinates></Point><ExtendedData><Data name="@id"><value>node/2403396549</value></Data><Data name="natural"><value>palaeontological_site</value></Data></ExtendedData></Placemark><Placemark><name>Sítio fossilífero da Fazenda Rivadávia</name><Point><coordinates>-49.9897488,-25.3059307</coordinates></Point><ExtendedData><Data name="@id"><value>node/3133043208</value></Data><Data name="name"><value>Sítio fossilífero da Fazenda Rivadávia</value></Data><Data name="natural"><value>palaeontological_site</value></Data><Data name="tourism"><value>attraction</value></Data></ExtendedData></Placemark><Placemark><name>Lapa Floriano</name><Point><coordinates>-50.2411243,-24.5764415</coordinates></Point><ExtendedData><Data name="@id"><value>node/3133118970</value></Data><Data name="addr:city"><value>Tibagi</value></Data><Data name="addr:street"><value>Pe do Guartelá</value></Data><Data name="name"><value>Lapa Floriano</value></Data><Data name="natural"><value>palaeontological_site</value></Data><Data name="tourism"><value>attraction</value></Data></ExtendedData></Placemark><Placemark><name>Lapa Ponciano</name><Point><coordinates>-50.2491062,-24.5688459</coordinates></Point><ExtendedData><Data name="@id"><value>node/3133118971</value></Data><Data name="addr:city"><value>Tibagi</value></Data><Data name="addr:street"><value>PE do Guartelá</value></Data><Data name="name"><value>Lapa Ponciano</value></Data><Data name="natural"><value>palaeontological_site</value></Data><Data name="tourism"><value>attraction</value></Data></ExtendedData></Placemark><Placemark><name>三崁山化石出土區</name><Point><coordinates>120.3957904,23.0425621</coordinates></Point><ExtendedData><Data name="@id"><value>node/3566856351</value></Data><Data name="name"><value>三崁山化石出土區</value></Data><Data name="natural"><value>palaeontological_site</value></Data></ExtendedData></Placemark><Placemark><name>Менілітова фауна</name><Point><coordinates>23.6046418,49.0851862</coordinates></Point><ExtendedData><Data name="@id"><value>node/3713639828</value></Data><Data name="name"><value>Менілітова фауна</value></Data><Data name="natural"><value>palaeontological_site</value></Data></ExtendedData></Placemark></Document></kml>